<?xml version="1.0" encoding="UTF-8"?>
<kml xmlns="http://earth.google.com/kml/2.0">
<Document>
<Placemark>
<name></name>
<Point><coordinates>22.85802,40.67075,0</coordinates></Point>
</Placemark>
<Placemark>
<name>Ναυπηγεία Χαλκίδας</name>
<Point><coordinates>23.59125,38.41656,0</coordinates></Point>
</Placemark>
<Placemark>
<name>Σοφάδες</name>
<Point><coordinates>22.09204,39.33952,0</coordinates></Point>
</Placemark>
<Placemark>
<name>Κεφαλόβρυσο</name>
<Point><coordinates>21.72983,39.59177,0</coordinates></Point>
</Placemark>
<Placemark>
<name>Κόκκινα</name>
<Point><coordinates>22.69712,39.33433,0</coordinates></Point>
</Placemark>
<Placemark>
<name>Πασχάλια</name>
<Point><coordinates>24.59176,41.23548,0</coordinates></Point>
</Placemark>
<Placemark>
<name>Μεζούρλο</name>
<Point><coordinates>22.40819,39.61899,0</coordinates></Point>
</Placemark>
<Placemark>
<name>Κιμμερία</name>
<Point><coordinates>24.92838,41.14491,0</coordinates></Point>
</Placemark>
<Placemark>
<name>Σώστης</name>
<Point><coordinates>25.28028,41.12331,0</coordinates></Point>
</Placemark>
<Placemark>
<name>Γεφυρούδι</name>
<Point><coordinates>23.36737,41.15872,0</coordinates></Point>
</Placemark>
<Placemark>
<name></name>
<Point><coordinates>21.79469,39.43835,0</coordinates></Point>
</Placemark>
<Placemark>
<name>Νέα Πέραμος</name>
<Point><coordinates>23.42858,38.01977,0</coordinates></Point>
</Placemark>
<Placemark>
<name>Μυρτιά</name>
<Point><coordinates>21.33749,37.69963,0</coordinates></Point>
</Placemark>
<Placemark>
<name>Ζαχάρω</name>
<Point><coordinates>21.6365,37.47873,0</coordinates></Point>
</Placemark>
<Placemark>
<name>Ταξιάρχες Φιγαλίας</name>
<Point><coordinates>21.66655,37.42015,0</coordinates></Point>
</Placemark>
<Placemark>
<name>Λουτρά Κυλλήνης</name>
<Point><coordinates>21.11635,37.85385,0</coordinates></Point>
</Placemark>
<Placemark>
<name>Αργος</name>
<Point><coordinates>22.73622,37.63145,0</coordinates></Point>
</Placemark>
<Placemark>
<name>Ανεμοδούρι</name>
<Point><coordinates>22.20865,37.35783,0</coordinates></Point>
</Placemark>
<Placemark>
<name>ΧΣ6+225 ΓΡΑΜΜΗ</name>
<Point><coordinates>22.7943,37.60762,0</coordinates></Point>
</Placemark>
<Placemark>
<name>Ισθμός</name>
<Point><coordinates>22.99968,37.92651,0</coordinates></Point>
</Placemark>
<Placemark>
<name>Λευκάδια</name>
<Point><coordinates>22.13605,40.66229,0</coordinates></Point>
</Placemark>
<Placemark>
<name>Μαρίνα</name>
<Point><coordinates>21.49717,40.86346,0</coordinates></Point>
</Placemark>
<Placemark>
<name>Νεγκοτίνο Βαρνταρ</name>
<Point><coordinates>22.09571,41.49208,0</coordinates></Point>
</Placemark>
<Placemark>
<name>Λάποβο</name>
<Point><coordinates>21.10204,44.15791,0</coordinates></Point>
</Placemark>
<Placemark>
<name>Πόρος Εύρου</name>
<Point><coordinates>26.21176,40.90635,0</coordinates></Point>
</Placemark>
<Placemark>
<name>Αλαλκομεναί</name>
<Point><coordinates>22.98217,38.40829,0</coordinates></Point>
</Placemark>
<Placemark>
<name>Αέρινο</name>
<Point><coordinates>22.75804,39.33201,0</coordinates></Point>
</Placemark>
<Placemark>
<name>Μλαντένοβατς</name>
<Point><coordinates>20.69186,44.44003,0</coordinates></Point>
</Placemark>
<Placemark>
<name>Κυψέλη Λάρισσας</name>
<Point><coordinates>22.65334,39.52265,0</coordinates></Point>
</Placemark>
<Placemark>
<name>Λυγιά</name>
<Point><coordinates>22.44888,38.12909,0</coordinates></Point>
</Placemark>
<Placemark>
<name>Διγελιώτικα</name>
<Point><coordinates>22.12247,38.25129,0</coordinates></Point>
</Placemark>
<Placemark>
<name>Μποζαΐτικα</name>
<Point><coordinates>21.76455,38.28142,0</coordinates></Point>
</Placemark>
<Placemark>
<name>Αχαΐα</name>
<Point><coordinates>21.5612,38.14596,0</coordinates></Point>
</Placemark>
<Placemark>
<name>Αμπελόκαμπος</name>
<Point><coordinates>21.30693,37.82649,0</coordinates></Point>
</Placemark>
<Placemark>
<name>Σαμικό</name>
<Point><coordinates>21.59238,37.54843,0</coordinates></Point>
</Placemark>
<Placemark>
<name>Δίλοφος</name>
<Point><coordinates>26.37826,41.69307,0</coordinates></Point>
</Placemark>
<Placemark>
<name></name>
<Point><coordinates>21.75398,40.73619,0</coordinates></Point>
</Placemark>
<Placemark>
<name>Βουνάκι</name>
<Point><coordinates>21.70064,37.32231,0</coordinates></Point>
</Placemark>
<Placemark>
<name>Ζαχλωρίτικα</name>
<Point><coordinates>22.1649,38.0934,0</coordinates></Point>
</Placemark>
<Placemark>
<name>Πλάτανος Ολυμπίας</name>
<Point><coordinates>21.6066,37.66733,0</coordinates></Point>
</Placemark>
<Placemark>
<name>Λεύκτρο</name>
<Point><coordinates>22.13602,37.35658,0</coordinates></Point>
</Placemark>
<Placemark>
<name>Ελευσίνα</name>
<Point><coordinates>23.58446,38.05568,0</coordinates></Point>
</Placemark>
<Placemark>
<name>Γατζέα</name>
<Point><coordinates>23.094,39.3221,0</coordinates></Point>
</Placemark>
<Placemark>
<name>Άσπρος</name>
<Point><coordinates>22.6553,40.89059,0</coordinates></Point>
</Placemark>
<Placemark>
<name></name>
</Placemark>
<Placemark>
<name>Δοϊράνη</name>
<Point><coordinates>22.77207,41.17277,0</coordinates></Point>
</Placemark>
<Placemark>
<name>Θόλος</name>
<Point><coordinates>23.77954,40.99974,0</coordinates></Point>
</Placemark>
<Placemark>
<name>Κοπτερό</name>
<Point><coordinates>25.12043,41.11706,0</coordinates></Point>
</Placemark>
<Placemark>
<name>Φυλακτό</name>
<Point><coordinates>26.27936,41.05286,0</coordinates></Point>
</Placemark>
<Placemark>
<name>Νεοχώρι Κυλλήνης</name>
<Point><coordinates>21.20585,37.90757,0</coordinates></Point>
</Placemark>
<Placemark>
<name>Χρυσό</name>
<Point><coordinates>23.63092,41.03237,0</coordinates></Point>
</Placemark>
<Placemark>
<name>Κωνσταντινούπολη</name>
</Placemark>
<Placemark>
<name>Εκκλησία</name>
</Placemark>
<Placemark>
<name>Ανάβρα</name>
</Placemark>
<Placemark>
<name>GIURGIU NORD</name>
</Placemark>
<Placemark>
<name>Οινόφυτα</name>
<Point><coordinates>23.63385,38.30686,0</coordinates></Point>
</Placemark>
<Placemark>
<name>Ελευθεροχώρι</name>
</Placemark>
<Placemark>
<name>Στενό</name>
<Point><coordinates>23.59056,38.41865,0</coordinates></Point>
</Placemark>
<Placemark>
<name>Παλαιοκκλήσι</name>
<Point><coordinates>21.87037,39.38233,0</coordinates></Point>
</Placemark>
<Placemark>
<name>Λεπτοκαρυά</name>
<Point><coordinates>22.56555,40.05863,0</coordinates></Point>
</Placemark>
<Placemark>
<name>Κούπριχα</name>
<Point><coordinates>21.36609,43.91676,0</coordinates></Point>
</Placemark>
<Placemark>
<name>Κιάτο</name>
<Point><coordinates>22.73478,38.01399,0</coordinates></Point>
</Placemark>
<Placemark>
<name></name>
<Point><coordinates>21.958,38.32599,0</coordinates></Point>
</Placemark>
<Placemark>
<name>Αγυά Πατρών</name>
<Point><coordinates>21.74603,38.27026,0</coordinates></Point>
</Placemark>
<Placemark>
<name>Γαστούνη</name>
<Point><coordinates>21.26097,37.85361,0</coordinates></Point>
</Placemark>
<Placemark>
<name>Χειμώνιο</name>
<Point><coordinates>26.555646,41.449981,0</coordinates></Point>
</Placemark>
<Placemark>
<name>Βεγορίτιδα</name>
<Point><coordinates>21.78663,40.80758,0</coordinates></Point>
</Placemark>
<Placemark>
<name>Λουτράκι</name>
<Point><coordinates>22.97698,37.97371,0</coordinates></Point>
</Placemark>
<Placemark>
<name>Ολυμπία</name>
<Point><coordinates>21.62682,37.64566,0</coordinates></Point>
</Placemark>
<Placemark>
<name>Παλλήνη</name>
<Point><coordinates>23.869911,38.005259,0</coordinates></Point>
</Placemark>
<Placemark>
<name>Βέροια</name>
<Point><coordinates>22.21359,40.53939,0</coordinates></Point>
</Placemark>
<Placemark>
<name>Καστανάς</name>
<Point><coordinates>22.65711,40.82735,0</coordinates></Point>
</Placemark>
<Placemark>
<name>Μουριές</name>
<Point><coordinates>22.83989,41.26132,0</coordinates></Point>
</Placemark>
<Placemark>
<name>Λιβέρα</name>
<Point><coordinates>24.69182,41.12409,0</coordinates></Point>
</Placemark>
<Placemark>
<name>Πετράδες</name>
<Point><coordinates>26.61108,41.33902,0</coordinates></Point>
</Placemark>
<Placemark>
<name>Ίκαρος Κυλλήνης</name>
<Point><coordinates>21.18177,37.92278,0</coordinates></Point>
</Placemark>
<Placemark>
<name>Αγία Τριάς</name>
</Placemark>
<Placemark>
<name>Νέος Σκοπός</name>
<Point><coordinates>23.61507,41.03418,0</coordinates></Point>
</Placemark>
<Placemark>
<name>Πύργος Βασιλίσσης</name>
<Point><coordinates>23.72743,38.03964,0</coordinates></Point>
</Placemark>
<Placemark>
<name>Αχάρρες</name>
</Placemark>
<Placemark>
<name>Ευαγγελισμός Τεμπών</name>
<Point><coordinates>22.51533,39.83107,0</coordinates></Point>
</Placemark>
<Placemark>
<name>Λατομείο Μελισσ. (μετρ)</name>
<Point><coordinates>22.8469,39.38323,0</coordinates></Point>
</Placemark>
<Placemark>
<name>Σβιλενγκραντ Συν.</name>
<Point><coordinates>26.14437,41.77409,0</coordinates></Point>
</Placemark>
<Placemark>
<name>Βελιγράδι</name>
<Point><coordinates>20.45546,44.80876,0</coordinates></Point>
</Placemark>
<Placemark>
<name>Ομαλό Θράκης</name>
<Point><coordinates>23.19623,41.26143,0</coordinates></Point>
</Placemark>
<Placemark>
<name></name>
<Point><coordinates>21.98899,38.30976,0</coordinates></Point>
</Placemark>
<Placemark>
<name>Ροδίτσα</name>
<Point><coordinates>21.88452,38.32368,0</coordinates></Point>
</Placemark>
<Placemark>
<name>Ροδιά</name>
<Point><coordinates>22.1554,38.21208,0</coordinates></Point>
</Placemark>
</Document>
</kml>